$GNRMC,084820.00,V,,,,,,,120524,,,N*65
$GNVTG,,,,,,,,,N*2E
$GNGGA,084820.00,,,,,0,00,99.99,,,,,,*7E
$GNGSA,A,1,,,,,,,,,,,,,99.99,99.99,99.99*2E
$GNGSA,A,1,,,,,,,,,,,,,99.99,99.99,99.99*2E
$GPGSV,3,1,11,05,35,288,,06,50,121,,07,28,088,,09,25,044,*78
$GPGSV,3,2,11,11,82,018,22,13,30,207,27,15,03,226,,19,12,174,*72
$GPGSV,3,3,11,20,59,321,,29,14,319,,30,28,126,*4E
$GLGSV,2,1,08,69,40,027,,70,59,268,,71,15,236,,78,01,040,*68
$GLGSV,2,2,08,83,00,150,,84,61,149,,85,56,328,,86,06,329,*62
$GNGLL,,,,,084820.00,V,N*52
$GNRMC,084823.00,V,,,,,,,120524,,,N*66
$GNVTG,,,,,,,,,N*2E
$GNGGA,084823.00,,,,,0,00,99.99,,,,,,*7D
$GNGSA,A,1,,,,,,,,,,,,,99.99,99.99,99.99*2E
$GNGSA,A,1,,,,,,,,,,,,,99.99,99.99,99.99*2E
$GPGSV,3,1,11,05,35,288,,06,50,121,,07,28,088,,09,25,044,*78
$GPGSV,3,2,11,11,82,018,11,13,30,207,27,15,03,226,,19,12,174,*72
$GPGSV,3,3,11,20,59,321,,29,14,319,,30,28,126,*4E
$GLGSV,2,1,08,69,40,027,,70,59,268,,71,15,236,,78,01,040,*68
$GLGSV,2,2,08,83,00,150,,84,61,149,,85,56,328,,86,06,329,*62
$GNGLL,,,,,084823.00,V,N*51
$GNRMC,084824.00,V,,,,,,,120524,,,N*61
$GNVTG,,,,,,,,,N*2E
$GNGGA,084824.00,,,,,0,00,99.99,,,,,,*7A
$GNGSA,A,1,,,,,,,,,,,,,99.99,99.99,99.99*2E
$GNGSA,A,1,,,,,,,,,,,,,99.99,99.99,99.99*2E
$GPGSV,3,1,11,05,35,288,,06,50,121,,07,28,088,,09,25,044,*78
$GPGSV,3,2,11,11,82,018,09,13,30,207,36,15,03,226,,19,12,174,*7B
$GPGSV,3,3,11,20,59,321,,29,14,319,,30,28,126,*4E
$GLGSV,2,1,08,69,40,027,,70,59,268,,71,15,236,,78,01,040,*68
$GLGSV,2,2,08,83,00,150,,84,61,149,,85,56,328,,86,06,329,*62
$GNGLL,,,,,084824.00,V,N*56
$GNRMC,084948.00,V,,,,,,,120524,,,N*6A
$GNVTG,,,,,,,,,N*2E
$GNGGA,084948.00,,,,,0,00,99.99,,,,,,*71
$GNGSA,A,1,,,,,,,,,,,,,99.99,99.99,99.99*2E
$GNTXT,01,01,01,SF ov [9]:0*69
$GNRMC,085442.00,V,,,,,,,120524,,,N*6C
$GNVTG,,,,,,,,,N*2E
$GNGGA,085442.00,,,,,0,00,99.99,,,,,,*77
$GNGSA,A,1,,,,,,,,,,,,,99.99,99.99,99.99*2E
$GNGSA,A,1,,,,,,,,,,,,,99.99,99.99,99.99*2E
$GPGSV,3,1,11,05,37,290,08,06,47,125,,07,29,085,,09,23,044,10*72
$GPGSV,3,2,11,11,84,039,,13,33,208,28,15,05,227,16,19,09,174,22*7E
$GPGSV,3,3,11,20,60,326,,29,16,317,,30,29,124,*4C
$GLGSV,2,1,08,69,38,029,,70,60,274,,71,17,238,,78,02,037,*61
$GLGSV,2,2,08,79,01,083,,84,58,153,,85,60,325,,86,08,329,*6E
$GNGLL,,,,,085442.00,V,N*5B
$GNTXT,01,01,01,SF ov [9]:0*69
$GNTXT,01,01,01,SF ov [9]:0*69
$GNTXT,01,01,01,SF ov [9]:0*69
$GNRMC,090522.00,V,,,,,,,120524,,,N*6F
$GNVTG,,,,,,,,,N*2E
$GNGGA,090522.00,,,,,0,00,99.99,,,,,,*74
$GNGSA,A,1,,,,,,,,,,,,,99.99,99.99,99.99*2E
$GNGSA,A,1,,,,,,,,,,,,,99.99,99.99,99.99*2E
$GPGSV,1,1,01,13,,,29*71
$GLGSV,1,1,00*65
$GNGLL,,,,,090522.00,V,N*58
$GNTXT,01,01,01,SF ov [9]:0*69
$GNRMC,090652.00,V,,,,,,,120524,,,N*6B
$GNVTG,,,,,,,,,N*2E
$GNGGA,090652.00,,,,,0,00,99.99,,,,,,*70
$GNGSA,A,1,,,,,,,,,,,,,99.99,99.99,99.99*2E
$GNGSA,A,1,,,,,,,,,,,,,99.99,99.99,99.99*2E
$GPGSV,1,1,01,13,,,27*7F
$GLGSV,1,1,00*65
$GNGLL,,,,,090652.00,V,N*5C
$GNRMC,090751.00,V,,,,,,,120524,,,N*69
$GNVTG,,,,,,,,,N*2E
$GNGGA,090751.00,,,,,0,00,99.99,,,,,,*72
$GNGSA,A,1,,,,,,,,,,,,,99.99,99.99,99.99*2E
$GNGSA,A,1,,,,,,,,,,,,,99.99,99.99,99.99*2E
$GPGSV,1,1,02,04,,,09,13,,,27*71
$GLGSV,1,1,01,,,,15*60
$GNGLL,,,,,090751.00,V,N*5E
$GNRMC,090752.00,V,,,,,,,120524,,,N*6A
$GNVTG,,,,,,,,,N*2E
$GNGGA,090752.00,,,,,0,00,99.99,,,,,,*71
$GNGSA,A,1,,,,,,,,,,,,,99.99,99.99,99.99*2E
$GNGSA,A,1,,,,,,,,,,,,,99.99,99.99,99.99*2E
$GPGSV,1,1,02,04,,,08,13,,,27*70
$GLGSV,1,1,02,,,,20,,,,09*6C
$GNGLL,,,,,090752.00,V,N*5D
$GNRMC,090757.00,V,,,,,,,120524,,,N*6F
$GNVTG,,,,,,,,,N*2E
$GNGGA,090757.00,,,,,0,00,99.99,,,,,,*74
$GNGSA,A,1,,,,,,,,,,,,,99.99,99.99,99.99*2E
$GNGSA,A,1,,,,,,,,,,,,,99.99,99.99,99.99*2E
$GPGSV,1,1,01,13,,,28*70
$GLGSV,1,1,01,,,,21*67
$GNGLL,,,,,090757.00,V,N*58
$GNRMC,090759.00,V,,,,,,,120524,,,N*61
$GNVTG,,,,,,,,,N*2E
$GNGGA,090759.00,,,,,0,00,99.99,,,,,,*7A
$GNGSA,A,1,,,,,,,,,,,,,99.99,99.99,99.99*2E
$GNGSA,A,1,,,,,,,,,,,,,99.99,99.99,99.99*2E
$GPGSV,1,1,01,13,,,28*70
$GLGSV,1,1,01,,,,11*64
$GNGLL,,,,,090759.00,V,N*56
$GNRMC,090800.00,V,,,,,,,120524,,,N*62
$GNVTG,,,,,,,,,N*2E
$GNGGA,090800.00,,,,,0,00,99.99,,,,,,*79
$GNGSA,A,1,,,,,,,,,,,,,99.99,99.99,99.99*2E
$GNGSA,A,1,,,,,,,,,,,,,99.99,99.99,99.99*2E
$GPGSV,1,1,01,13,,,33*7A
$GLGSV,1,1,01,,,,08*6C
$GNGLL,,,,,090800.00,V,N*55
$GNRMC,090841.00,V,,,,,,,120524,,,N*67
$GNVTG,,,,,,,,,N*2E
$GNGGA,090841.00,,,,,0,00,99.99,,,,,,*7C
$GNGSA,A,1,,,,,,,,,,,,,99.99,99.99,99.99*2E
$GNGSA,A,1,,,,,,,,,,,,,99.99,99.99,99.99*2E
$GPGSV,1,1,03,03,,,08,13,,,26,25,,,08*78
$GLGSV,1,1,02,,,,11,,,,11*67
$GNGLL,,,,,090841.00,V,N*50
$GNRMC,090843.00,V,,,,,,,120524,,,N*65
$GNVTG,,,,,,,,,N*2E
$GNGGA,090843.00,,,,,0,00,99.99,,,,,,*7E
$GNGSA,A,1,,,,,,,,,,,,,99.99,99.99,99.99*2E
$GNGSA,A,1,,,,,,,,,,,,,99.99,99.99,99.99*2E
$GPGSV,1,1,01,13,,,26*7E
$GLGSV,1,1,02,,,,06,,,,02*63
$GNGLL,,,,,090843.00,V,N*52
$GNRMC,091017.00,V,,,,,,,120524,,,N*6D
$GNVTG,,,,,,,,,N*2E
$GNGGA,091017.00,,,,,0,00,99.99,,,,,,*76
$GNGSA,A,1,,,,,,,,,,,,,99.99,99.99,99.99*2E
$GNGSA,A,1,,,,,,,,,,,,,99.99,99.99,99.99*2E
$GPGSV,1,1,02,13,,,27,15,,,12*7B
$GLGSV,1,1,00*65
$GNGLL,,,,,091017.00,V,N*5A
$GNRMC,091019.00,V,,,,,,,120524,,,N*63
$GNVTG,,,,,,,,,N*2E
$GNGGA,091019.00,,,,,0,00,99.99,,,,,,*78
$GNGSA,A,1,,,,,,,,,,,,,99.99,99.99,99.99*2E
$GNGSA,A,1,,,,,,,,,,,,,99.99,99.99,99.99*2E
$GPGSV,1,1,02,13,,,24,15,,,08*73
$GLGSV,1,1,00*65
$GNGLL,,,,,091019.00,V,N*54
$GNRMC,091020.00,V,,,,,,,120524,,,N*69
$GNVTG,,,,,,,,,N*2E
$GNGGA,091020.00,,,,,0,00,99.99,,,,,,*72
$GNGSA,A,1,,,,,,,,,,,,,99.99,99.99,99.99*2E
$GNGSA,A,1,,,,,,,,,,,,,99.99,99.99,99.99*2E
$GPGSV,1,1,02,13,,,24,15,,,08*73
$GLGSV,1,1,00*65
$GNGLL,,,,,091020.00,V,N*5E
$GNRMC,091021.00,V,,,,,,,120524,,,N*68
$GNVTG,,,,,,,,,N*2E
$GNGGA,091021.00,,,,,0,00,99.99,,,,,,*73
$GNGSA,A,1,,,,,,,,,,,,,99.99,99.99,99.99*2E
$GNGSA,A,1,,,,,,,,,,,,,99.99,99.99,99.99*2E
$GPGSV,1,1,02,13,,,34,15,,,11*7A
$GLGSV,1,1,00*65
$GNGLL,,,,,091021.00,V,N*5F
$GNRMC,091027.00,V,,,,,,,120524,,,N*6E
$GNVTG,,,,,,,,,N*2E
$GNGGA,091027.00,,,,,0,00,99.99,,,,,,*75
$GNGSA,A,1,,,,,,,,,,,,,99.99,99.99,99.99*2E
$GNGSA,A,1,,,,,,,,,,,,,99.99,99.99,99.99*2E
$GPGSV,1,1,01,13,,,27*7F
$GLGSV,1,1,00*65
$GNGLL,,,,,091027.00,V,N*59
$GNRMC,091031.00,V,,,,,,,120524,,,N*69
$GNVTG,,,,,,,,,N*2E
$GNGGA,091031.00,,,,,0,00,99.99,,,,,,*72
$GNGSA,A,1,,,,,,,,,,,,,99.99,99.99,99.99*2E
$GNGSA,A,1,,,,,,,,,,,,,99.99,99.99,99.99*2E
$GPGSV,1,1,01,13,,,26*7E
$GLGSV,1,1,00*65
$GNGLL,,,,,091031.00,V,N*5E
$GNRMC,091301.00,V,,,,,,,120524,,,N*69
$GNVTG,,,,,,,,,N*2E
$GNGGA,091301.00,,,,,0,00,99.99,,,,,,*72
$GNGSA,A,1,,,,,,,,,,,,,99.99,99.99,99.99*2E
$GNGSA,A,1,,,,,,,,,,,,,99.99,99.99,99.99*2E
$GPGSV,1,1,01,13,,,28*70
$GLGSV,1,1,02,,,,08,,,,20*6D
$GNGLL,,,,,091301.00,V,N*5E
$GNRMC,091302.00,V,,,,,,,120524,,,N*6A
$GNVTG,,,,,,,,,N*2E
$GNGGA,091302.00,,,,,0,00,99.99,,,,,,*71
$GNGSA,A,1,,,,,,,,,,,,,99.99,99.99,99.99*2E
$GNGSA,A,1,,,,,,,,,,,,,99.99,99.99,99.99*2E
$GPGSV,1,1,01,13,,,35*7C
$GLGSV,1,1,02,,,,09,,,,06*68
$GNGLL,,,,,091302.00,V,N*5D
$GNRMC,091404.00,V,,,,,,,120524,,,N*6B
$GNVTG,,,,,,,,,N*2E
$GNGGA,091404.00,,,,,0,00,99.99,,,,,,*70
$GNGSA,A,1,,,,,,,,,,,,,99.99,99.99,99.99*2E
$GNGSA,A,1,,,,,,,,,,,,,99.99,99.99,99.99*2E
$GNTXT,01,01,01,SF ov [9]:0*69
$GNRMC,092011.00,V,,,,,,,120524,,,N*68
$GNVTG,,,,,,,,,N*2E
$GNGGA,092011.00,,,,,0,00,99.99,,,,,,*73
$GNGSA,A,1,,,,,,,,,,,,,99.99,99.99,99.99*2E
$GNGSA,A,1,,,,,,,,,,,,,99.99,99.99,99.99*2E
$GPGSV,1,1,00*79
$GLGSV,1,1,00*65
$GNGLL,,,,,092011.00,V,N*5F
$GNRMC,092019.00,V,,,,,,,120524,,,N*60
$GNVTG,,,,,,,,,N*2E
$GNGGA,092019.00,,,,,0,00,99.99,,,,,,*7B
$GNGSA,A,1,,,,,,,,,,,,,99.99,99.99,99.99*2E
$GNGSA,A,1,,,,,,,,,,,,,99.99,99.99,99.99*2E
$GPGSV,1,1,00*79
$GLGSV,1,1,00*65
$GNGLL,,,,,092019.00,V,N*57
$GNRMC,092045.00,V,,,,,,,120524,,,N*69
$GNVTG,,,,,,,,,N*2E
$GNGGA,092045.00,,,,,0,00,99.99,,,,,,*72
$GNGSA,A,1,,,,,,,,,,,,,99.99,99.99,99.99*2E
$GNGSA,A,1,,,,,,,,,,,,,99.99,99.99,99.99*2E
$GPGSV,1,1,00*79
$GLGSV,1,1,00*65
$GNGLL,,,,,092045.00,V,N*5E
$GNTXT,01,01,01,SF ov [1]:0*61
$GNRMC,092448.00,V,,,,,,,120524,,,N*60
$GNVTG,,,,,,,,,N*2E
$GNGGA,092448.00,,,,,0,00,99.99,,,,,,*7B
$GNGSA,A,1,,,,,,,,,,,,,99.99,99.99,99.99*2E
$GNGSA,A,1,,,,,,,,,,,,,99.99,99.99,99.99*2E
$GNRMC,092705.00,A,3546.28711,N,13951.74769,E,0.293,,120524,,,A*62
$GNVTG,,T,,M,0.293,N,0.542,K,A*36
$GNGGA,092705.00,3546.28711,N,13951.74769,E,1,05,1.85,-19.9,M,39.5,M,,*5C
$GNGSA,A,3,06,20,11,09,13,,,,,,,,2.81,1.85,2.11*16
$GNGSA,A,3,,,,,,,,,,,,,2.81,1.85,2.11*19
$GPGSV,3,1,10,05,46,306,,06,34,136,13,07,30,069,19,09,10,046,19*7E
$GPGSV,3,2,10,11,75,132,13,13,49,215,31,15,17,235,,20,66,356,32*77
$GPGSV,3,3,10,29,23,305,,30,38,109,*74
$GLGSV,3,1,09,69,24,038,21,70,62,314,05,71,28,253,,78,01,023,*68
$GLGSV,3,2,09,79,08,069,,80,02,117,,84,40,163,,85,74,293,11*63
$GLGSV,3,3,09,86,23,329,*5B
$GNGLL,3546.28711,N,13951.74769,E,092705.00,A,A*73
$GNRMC,092739.00,A,3546.28698,N,13951.74714,E,0.157,,120524,,,A*6C
$GNVTG,,T,,M,0.157,N,0.291,K,A*34
$GNGGA,092739.00,3546.28698,N,13951.74714,E,1,04,2.93,-14.0,M,39.5,M,,*58
$GNGSA,A,3,20,11,09,13,,,,,,,,,3.61,2.93,2.12*18
$GNGSA,A,3,,,,,,,,,,,,,3.61,2.93,2.12*11
$GPGSV,3,1,10,05,46,306,,06,34,136,03,07,30,069,08,09,10,046,17*71
$GPGSV,3,2,10,11,75,132,14,13,49,215,35,15,17,235,,20,66,356,32*74
$GPGSV,3,3,10,29,23,305,,30,38,109,19*7C
$GLGSV,3,1,09,69,24,038,,70,62,314,16,71,28,253,,78,01,023,*69
$GLGSV,3,2,09,79,08,069,,80,02,117,,84,40,163,,85,74,293,20*61
$GLGSV,3,3,09,86,23,329,*5B
$GNGLL,3546.28698,N,13951.74714,E,092739.00,A,A*76
$GNTXT,01,01,01,SF ov [1]:0*61
$GNTXT,01,01,01,SF ov [3]:0*63
$GNRMC,093049.00,A,3546.29033,N,13951.77442,E,0.138,,120524,,,A*61
$GNVTG,,T,,M,0.138,N,0.256,K,A*36
$GNGGA,093049.00,3546.29033,N,13951.77442,E,1,05,2.29,48.1,M,39.5,M,,*79
$GNGSA,A,3,07,20,11,09,13,,,,,,,,3.09,2.29,2.07*14
$GNGSA,A,3,,,,,,,,,,,,,3.09,2.29,2.07*1A
$GPGSV,3,1,10,05,47,308,17,06,33,137,09,07,30,067,30,09,09,046,21*7C
$GPGSV,3,2,10,11,74,135,16,13,50,216,29,15,18,236,,20,66,360,28*74
$GPGSV,3,3,10,29,24,303,12,30,39,107,17*7F
$GLGSV,3,1,09,69,22,039,22,70,62,318,,71,29,255,21,78,01,021,*63
$GLGSV,3,2,09,79,09,068,,80,03,116,,84,38,164,,85,75,286,*6E
$GLGSV,3,3,09,86,25,328,*5C
$GNGLL,3546.29033,N,13951.77442,E,093049.00,A,A*72
$GNTXT,01,01,01,SF ov [0]:0*60
$GNTXT,01,01,01,SF ov [2]:0*62
$GNTXT,01,01,01,SF ov [3]:0*63
$GNTXT,01,01,01,SF ov [18]:0*59
$GNRMC,093128.00,A,3546.28426,N,13951.77866,E,0.687,,120524,,,A*6F
$GNVTG,,T,,M,0.687,N,1.272,K,A*32
$GNGGA,093128.00,3546.28426,N,13951.77866,E,1,05,2.30,37.0,M,39.5,M,,*75
$GNGSA,A,3,07,20,11,09,13,,,,,,,,3.10,2.30,2.08*1B
$GNGSA,A,3,,,,,,,,,,,,,3.10,2.30,2.08*15
$GPGSV,3,1,10,05,47,308,,06,33,137,,07,30,067,26,09,09,046,21*74
$GPGSV,3,2,10,11,74,135,14,13,50,216,30,15,18,236,,20,66,360,31*76
$GPGSV,3,3,10,29,24,303,,30,39,107,*7A
$GLGSV,3,1,09,69,22,040,15,70,62,318,,71,29,255,22,78,01,021,*6A
$GLGSV,3,2,09,79,09,068,,80,03,116,,84,38,164,,85,75,286,12*6D
$GLGSV,3,3,09,86,25,328,*5C
$GNGLL,3546.28426,N,13951.77866,E,093128.00,A,A*7F
$GNRMC,093801.00,V,,,,,,,120524,,,N*60
$GNVTG,,,,,,,,,N*2E
$GNGGA,093801.00,,,,,0,05,2.42,,,,,,*4A
$GNGSA,A,1,07,20,11,09,13,,,,,,,,3.20,2.42,2.10*16
$GNGSA,A,1,,,,,,,,,,,,,3.20,2.42,2.10*18
$GPGSV,3,1,10,05,47,308,,06,33,137,,07,30,067,23,09,09,046,15*76
$GPGSV,3,2,10,11,74,135,20,13,50,216,22,15,18,236,,20,66,360,21*73
$GPGSV,3,3,10,29,24,303,,30,39,107,*7A
$GLGSV,3,1,09,69,22,040,17,70,61,328,,71,29,255,,78,01,021,*68
$GLGSV,3,2,09,79,09,068,,80,03,116,,84,38,164,,85,75,286,*6E
$GLGSV,3,3,09,86,25,328,*5C
$GNGLL,,,,,093801.00,V,N*57
$GNRMC,100241.00,V,,,,,,,120524,,,N*65
$GNVTG,,,,,,,,,N*2E
$GNGGA,100241.00,,,,,0,00,99.99,,,,,,*7E
$GNGSA,A,1,,,,,,,,,,,,,99.99,99.99,99.99*2E
$GNGSA,A,1,,,,,,,,,,,,,99.99,99.99,99.99*2E
$GPGSV,3,1,09,05,57,326,,06,20,145,,07,25,053,,11,58,150,*79
$GPGSV,3,2,09,13,65,231,10,15,29,246,,20,67,038,,29,26,288,*7B
$GPGSV,3,3,09,30,43,088,*44
$GLGSV,2,1,08,69,10,050,,70,57,354,,71,38,273,,79,13,052,*62
$GLGSV,2,2,08,80,14,104,,84,21,169,,85,68,225,,86,39,321,*66
$GNGLL,,,,,100241.00,V,N*52
$GNRMC,101303.00,V,,,,,,,120524,,,N*63
$GNVTG,,,,,,,,,N*2E
$GNGGA,101303.00,,,,,0,00,99.99,,,,,,*78
$GNGSA,A,1,,,,,,,,,,,,,99.99,99.99,99.99*2E
$GNGSA,A,1,,,,,,,,,,,,,99.99,99.99,99.99*2E
$GPGSV,3,1,10,05,60,334,,06,15,147,,07,23,050,,11,53,153,*7F
$GPGSV,3,2,10,13,69,239,,15,33,250,,18,03,320,,20,66,050,*73
$GPGSV,3,3,10,29,26,283,,30,43,081,*73
$GLGSV,3,1,10,69,07,054,,70,54,002,,71,41,281,,72,02,253,*60
$GLGSV,3,2,10,73,02,147,,79,13,047,,80,17,099,,84,15,170,*6E
$GLGSV,3,3,10,85,63,216,,86,44,317,*62
$GNGLL,,,,,101303.00,V,N*54
H¨°¨X`bX`bX``XäðÄêÌ@ÂØØÞÆ@àÞäè@fTh$GNRMC,113612.50,V,,,,,,,120524,,,N*60
$GNVTG,,,,,,,,,N*2E
$GNGGA,113612.50,,,,,0,00,99.99,,,,,,*7B
$GNGSA,A,1,,,,,,,,,,,,,99.99,99.99,99.99*2E
$GNGSA,A,1,,,,,,,,,,,,,99.99,99.99,99.99*2E
$GPGSV,3,1,12,05,69,072,,11,15,163,,13,66,017,,14,12,083,*7E
$GPGSV,3,2,12,15,59,295,,18,33,310,,20,44,114,,22,09,104,*7C
$GPGSV,3,3,12,23,03,304,,24,28,203,,29,10,247,,30,24,046,*7E
$GLGSV,3,1,09,70,32,055,,71,52,346,,72,24,290,,73,35,119,*6B
$GLGSV,3,2,09,74,12,160,,80,28,053,,85,17,196,,86,47,249,*69
$GLGSV,3,3,09,87,30,316,*54
$GNGLL,,,,,113612.50,V,N*57
$GNRMC,113616.00,V,,,,,,,120524,,,N*61
$GNVTG,,,,,,,,,N*2E
$GNGGA,113616.00,,,,,0,00,99.99,,,,,,*7A
$GNGSA,A,1,,,,,,,,,,,,,99.99,99.99,99.99*2E
$GNGSA,A,1,,,,,,,,,,,,,99.99,99.99,99.99*2E
$GPGSV,3,1,12,05,69,072,,11,15,163,,13,66,017,,14,12,083,*7E
$GPGSV,3,2,12,15,59,295,,18,33,310,,20,44,114,,22,09,104,*7C
$GPGSV,3,3,12,23,03,304,,24,28,203,,29,10,247,,30,24,046,*7E
$GLGSV,3,1,09,70,32,055,,71,52,346,,72,24,290,,73,35,119,*6B
$GLGSV,3,2,09,74,12,160,,80,28,053,,85,17,196,,86,47,249,*69
$GLGSV,3,3,09,87,30,316,*54
$GNGLL,,,,,113616.00,V,N*56
$GNRMC,113723.00,V,,,,,,,120524,,,N*66
$GNVTG,,,,,,,,,N*2E
$GNRMC,120201.00,V,,,,,,,120524,,,N*63
$GNVTG,,,,,,,,,N*2E
$GNGGA,120201.00,,,,,0,00,99.99,,,,,,*78
$GNGSA,A,1,,,,,,,,,,,,,99.99,99.99,99.99*2E
$GNGSA,A,1,,,,,,,,,,,,,99.99,99.99,99.99*2E
$GNRMC,120216.00,V,,,,,,,120524,,,N*65
$GNVTG,,,,,,,,,N*2E
$GNGGA,120216.00,,,,,0,00,99.99,,,,,,*7E
$GNGSA,A,1,,,,,,,,,,,,,99.99,99.99,99.99*2E
$GNGSA,A,1,,,,,,,,,,,,,99.99,99.99,99.99*2E
$GPGSV,3,1,12,05,62,101,,11,04,163,,13,56,033,,14,15,072,*7C
$GPGSV,3,2,12,15,64,321,,18,40,298,,20,34,125,,22,15,092,*7F
$GPGSV,3,3,12,23,12,309,,24,41,206,,29,03,237,,30,14,043,*7A
$GLGSV,3,1,10,70,25,068,20,71,52,009,,72,31,304,,73,44,104,*63
$GLGSV,3,2,10,74,25,154,,80,23,039,,85,04,192,,86,36,233,*68
$GLGSV,3,3,10,87,35,299,,88,01,342,*6B
$GNGLL,,,,,120216.00,V,N*52
$GNRMC,120219.00,V,,,,,,,120524,,,N*6A
$GNVTG,,,,,,,,,N*2E
$GNGGA,120219.00,,,,,0,00,99.99,,,,,,*71
$GNGSA,A,1,,,,,,,,,,,,,99.99,99.99,99.99*2E
$GNGSA,A,1,,,,,,,,,,,,,99.99,99.99,99.99*2E
$GPGSV,3,1,12,05,62,101,,11,04,163,,13,56,033,,14,15,072,*7C
$GPGSV,3,2,12,15,64,321,,18,40,298,,20,34,125,,22,15,092,*7F
$GPGSV,3,3,12,23,12,309,,24,41,206,,29,03,237,,30,14,043,*7A
$GLGSV,3,1,10,70,25,068,12,71,52,009,,72,31,304,,73,44,104,*62
$GLGSV,3,2,10,74,25,154,,80,23,039,,85,04,192,,86,36,233,*68
$GLGSV,3,3,10,87,35,299,,88,01,342,*6B
$GNGLL,,,,,120219.00,V,N*5D
